{"name": "Curly amman, Curlz Men and Kids", "lat": 31.9749008, "lon": 35.842672, "url": "https://www.google.com/maps/place/Curly+amman,+Curlz+Men+and+Kids/data=!4m7!3m6!1s0x151ca18ef47b082b:0x7e7cfd1cd2f0470e!8m2!3d31.9749008!4d35.842672!16s%2Fg%2F11tnd1h2pw!19sChIJKwh79I6hHBURDkfw0hz9fH4?authuser=0&hl=en&rclk=1", "address": "\ue0c8Inside Alsabelah Complex, Mecca Street, 2nd floor 250, Amman, Jordan", "website": "/url?q=https://curlzmen.com/&opi=79508299&sa=U&ved=0ahUKEwiz2MTnsvWTAxWDVKQEHQayCUkQ61gIFygS&usg=AOvVaw02rZFxEpWiWEVGi-TGyqR1", "rating": "", "phone": ""}
{"name": "Viro Barbershop - Prince Rashid", "lat": 31.9748813, "lon": 35.8488192, "url": "https://www.google.com/maps/place/Viro+Barbershop+-+Prince+Rashid/data=!4m7!3m6!1s0x151ca128c36742ef:0xae76079da3b800c2!8m2!3d31.9748813!4d35.8488192!16s%2Fg%2F11s5ql9jw8!19sChIJ70JnwyihHBURwgC4o50Hdq4?authuser=0&hl=en&rclk=1", "address": "\ue0c8XRFX+XG8, Al-Maharah St., Amman, Jordan", "website": "/url?q=https://virobarbers.com/&opi=79508299&sa=U&ved=0ahUKEwji04LosvWTAxUdUaQEHYsPO7AQ61gIFygS&usg=AOvVaw1wEg2Z22V-RtufXnipJ-pg", "rating": "", "phone": ""}
{"name": "961 Salon", "lat": 25.273666, "lon": 51.5012397, "url": "https://www.google.com/maps/place/961+Salon/data=!4m7!3m6!1s0x3e45dd52d6f66ffb:0x93325f9bb1bd304a!8m2!3d25.273666!4d51.5012397!16s%2Fg%2F11swps9l5f!19sChIJ-2_21lLdRT4RSjC9sZtfMpM?authuser=0&hl=en&rclk=1", "address": "\ue0c8Al Mirqab Al Jadeed St, Doha", "website": "", "rating": "", "phone": ""}
{"name": "Fares Barber Shop", "lat": 31.9901997, "lon": 35.8712257, "url": "https://www.google.com/maps/place/Fares+Barber+Shop/data=!4m7!3m6!1s0x151ca1dd12465203:0xbde44d61f0805c36!8m2!3d31.9901997!4d35.8712257!16s%2Fg%2F11svllmd5r!19sChIJA1JGEt2hHBURNlyA8GFN5L0?authuser=0&hl=en&rclk=1", "address": "\ue0c8Wasfi Al Tall St. 140, Amman, Jordan", "website": "/url?q=https://fares-barbershopcom.localo.site/%3Futm_source%3Dgoogle_profile%26utm_campaign%3Dlocalo%26utm_medium%3Dmainlink&opi=79508299&sa=U&ved=0ahUKEwin3JHpsvWTAxVSoScCHbOAMK8Q61gIFSgQ&usg=AOvVaw3pALQ_dWXhsIeVcP7jndSK", "rating": "", "phone": ""}
{"name": "Capri Salon Barbershop", "lat": 31.9637691, "lon": 35.8798815, "url": "https://www.google.com/maps/place/Capri+Salon+Barbershop/data=!4m7!3m6!1s0x151ca1c184666715:0xfd3000bbed8c5ced!8m2!3d31.9637691!4d35.8798815!16s%2Fg%2F11rzsvz6pl!19sChIJFWdmhMGhHBUR7VyM7bsAMP0?authuser=0&hl=en&rclk=1", "address": "\ue0c8\u0628\u062c\u0627\u0646\u0628 \u062f\u0631\u0627\u064a \u0643\u0644\u064a\u0646 \u0644\u064a\u0644\u064a\u0648\u0645\u060c \u0634\u0627\u0631\u0639 \u0627\u0644\u0631\u0645\u0627\u062f\u064a \u062a\u0642\u0627\u0637\u0639 \u0634\u0627\u0631\u0639 \u0645\u0642\u0627\u062f\u064a\u0634\u0648 \u0646\u0632\u0648\u0644, Maqadisho St., Amman, Jordan", "website": "", "rating": "", "phone": ""}
{"name": "MAKKAWI BARBERSHOP", "lat": 31.9593109, "lon": 35.8378176, "url": "https://www.google.com/maps/place/MAKKAWI+BARBERSHOP/data=!4m7!3m6!1s0x151ca165eb9aaa21:0x77a983c871484ca2!8m2!3d31.9593109!4d35.8378176!16s%2Fg%2F11fz9z5206!19sChIJIaqa62WhHBURokxIcciDqXc?authuser=0&hl=en&rclk=1", "address": "\ue0c8Amman, Jordan", "website": "", "rating": "", "phone": ""}
{"name": "Arthur Barbershop", "lat": 31.9845991, "lon": 35.8858782, "url": "https://www.google.com/maps/place/Arthur+Barbershop/data=!4m7!3m6!1s0x151ca16bb0b8dcc1:0xb112c6d87256d01f!8m2!3d31.9845991!4d35.8858782!16s%2Fg%2F11swvb_l5j!19sChIJwdy4sGuhHBURH9BWctjGErE?authuser=0&hl=en&rclk=1", "address": "\ue0c8Wasfi Al-Tal Street - Building 40 - GF, Jordan", "website": "/url?q=http://www.arthur-barbershop.com/&opi=79508299&sa=U&ved=0ahUKEwiExvnqsvWTAxW6TaQEHUTdHncQ61gIEygO&usg=AOvVaw1ytO9xcQzYsL5skbjqGyw1", "rating": "", "phone": ""}
{"name": "HAMZEH BARBERSHOP", "lat": 31.948644, "lon": 35.9222095, "url": "https://www.google.com/maps/place/HAMZEH+BARBERSHOP/data=!4m7!3m6!1s0x151b5fb84cc71ce7:0xec37d010a037186f!8m2!3d31.948644!4d35.9222095!16s%2Fg%2F11h5_vdmj7!19sChIJ5xzHTLhfGxURbxg3oBDQN-w?authuser=0&hl=en&rclk=1", "address": "\ue0c8Al-Imam Malek St., Amman, Jordan", "website": "", "rating": "", "phone": ""}
{"name": "Barber Shop Samman", "lat": 31.9610168, "lon": 35.90442, "url": "https://www.google.com/maps/place/Barber+Shop+Samman/data=!4m7!3m6!1s0x151ca07aac91574b:0x25acbbf00dad2bbe!8m2!3d31.9610168!4d35.90442!16s%2Fg%2F11c6q594fn!19sChIJS1eRrHqgHBURviutDfC7rCU?authuser=0&hl=en&rclk=1", "address": "\ue0c8Amman, Jordan", "website": "/url?q=https://www.sammanbarbershop.com/&opi=79508299&sa=U&ved=0ahUKEwiti4zssvWTAxUoU6QEHWFBKm0Q61gIFCgP&usg=AOvVaw3MSCRzsI0YrNUiffwxvc2o", "rating": "", "phone": ""}
{"name": "Riyad Salon for Men", "lat": 31.9924322, "lon": 35.8726704, "url": "https://www.google.com/maps/place/Riyad+Salon+for+Men/data=!4m7!3m6!1s0x151ca02d41573ca9:0x8ae82b31a0746ad0!8m2!3d31.9924322!4d35.8726704!16s%2Fg%2F11c2k_sqs8!19sChIJqTxXQS2gHBUR0Gp0oDEr6Io?authuser=0&hl=en&rclk=1", "address": "\ue0c8XVRF+X3F, Amman, Jordan", "website": "", "rating": "", "phone": ""}
{"name": "Hamuda Barbershop", "lat": 31.9927142, "lon": 35.8716873, "url": "https://www.google.com/maps/place/Hamuda+Barbershop/data=!4m7!3m6!1s0x151ca120fc2e4483:0xc933a7ee33b7954a!8m2!3d31.9927142!4d35.8716873!16s%2Fg%2F11s5_t7pxc!19sChIJg0Qu_CChHBURSpW3M-6nM8k?authuser=0&hl=en&rclk=1", "address": "\ue0c8\u0634. \u0639\u0628\u062f\u0627\u0644\u0644\u0647 \u0627\u0644\u0639\u0632\u0628, Amman, Jordan", "website": "", "rating": "", "phone": ""}
{"name": "CUT N' SHAVE", "lat": 31.9186081, "lon": 35.8918371, "url": "https://www.google.com/maps/place/CUT+N%27+SHAVE/data=!4m7!3m6!1s0x151ca120171d1731:0xfa997c2d2f3feb51!8m2!3d31.9186081!4d35.8918371!16s%2Fg%2F11smqyrxk_!19sChIJMRcdFyChHBURUes_Ly18mfo?authuser=0&hl=en&rclk=1", "address": "\ue0c8Yazid Ben Al-Hareth St., Amman, Jordan", "website": "/url?q=https://cut-n-shave.localo.site/%3Futm_source%3Dgoogle_profile%26utm_campaign%3Dlocalo%26utm_medium%3Dmainlink&opi=79508299&sa=U&ved=0ahUKEwjcwbztsvWTAxUhVqQEHYScFSYQ61gIFigR&usg=AOvVaw2SeqGZZiQ9GbIJa_D0RD1b", "rating": "", "phone": ""}
{"name": "SOLID AMMAN \u201cBARBER SHOP\u201d", "lat": 31.9637591, "lon": 35.87021, "url": "https://www.google.com/maps/place/SOLID+AMMAN+%E2%80%9CBARBER+SHOP%E2%80%9D/data=!4m7!3m6!1s0x151ca162ce519351:0xa3210a7a18dcbda1!8m2!3d31.9637591!4d35.87021!16s%2Fg%2F11y50h35x0!19sChIJUZNRzmKhHBURob3cGHoKIaM?authuser=0&hl=en&rclk=1", "address": "\ue0c8Al-Furat St., Amman 11118, Jordan", "website": "/url?q=http://solidbarber.com/&opi=79508299&sa=U&ved=0ahUKEwi48PntsvWTAxVgKvsDHRAlEJgQ61gIFigR&usg=AOvVaw39gEmD97FBExXMPFJfZHhy", "rating": "", "phone": ""}
{"name": "MAKKAWI\u2019S BARBERSHOP DABOUQ", "lat": 32.0071224, "lon": 35.8337743, "url": "https://www.google.com/maps/place/MAKKAWI%E2%80%99S+BARBERSHOP+DABOUQ/data=!4m7!3m6!1s0x151ca1007fc8a523:0x408d4cb5d7ebefc!8m2!3d32.0071224!4d35.8337743!16s%2Fg%2F11wbtsz2yg!19sChIJI6XIfwChHBUR_L5-XcvUCAQ?authuser=0&hl=en&rclk=1", "address": "\ue0c8\u0645\u0642\u0627\u0628\u0644 \u0645\u0624\u0633\u0633\u0629 \u0627\u0644\u0645\u0648\u0627\u0635\u0641\u0627\u062a \u0648\u0627\u0644\u0645\u0642\u0627\u064a\u064a\u0633, Yathreb St., Amman, Jordan", "website": "/url?q=https://www.instagram.com/makkawisbarbershopdabouq%3Figsh%3DMWJqNXpraG1jNmZvZQ%3D%3D&opi=79508299&sa=U&ved=0ahUKEwjg3O7usvWTAxXaP_sDHfMBG4QQ61gIGCgT&usg=AOvVaw36Sx8vOkrIkcPNcnJAPT7Y", "rating": "", "phone": ""}
{"name": "Royal Razor\u0635\u0627\u0644\u0648\u0646 \u062d\u0644\u0627\u0642\u0647", "lat": 31.9546972, "lon": 35.9118306, "url": "https://www.google.com/maps/place/Royal+Razor%D8%B5%D8%A7%D9%84%D9%88%D9%86+%D8%AD%D9%84%D8%A7%D9%82%D9%87%E2%80%AD/data=!4m7!3m6!1s0x151ca18dbbe3535f:0x6a92b80fdadff1ea!8m2!3d31.9546972!4d35.9118306!16s%2Fg%2F11svpvh75j!19sChIJX1Pju42hHBUR6vHf2g-4kmo?authuser=0&hl=en&rclk=1", "address": "\ue0c8Al Ameer, Muhammad Tash St., Amman, Jordan", "website": "", "rating": "", "phone": ""}
{"name": "Owais Salon", "lat": 31.9900497, "lon": 35.8727835, "url": "https://www.google.com/maps/place/Owais+Salon/data=!4m7!3m6!1s0x151ca196f4b9fa51:0xa25c13ca097738f2!8m2!3d31.9900497!4d35.8727835!16s%2Fg%2F11g1_qy74x!19sChIJUfq59JahHBUR8jh3CcoTXKI?authuser=0&hl=en&rclk=1", "address": "\ue0c8Grays Haddadin St., Amman 11953, Jordan", "website": "", "rating": "", "phone": ""}
{"name": "Mr Black barbershop", "lat": 31.9667836, "lon": 35.8757987, "url": "https://www.google.com/maps/place/Mr+Black+barbershop/data=!4m7!3m6!1s0x151ca117e0216b7d:0x2b596ddd83a6f373!8m2!3d31.9667836!4d35.8757987!16s%2Fg%2F11q83jc_mn!19sChIJfWsh4BehHBURc_Omg91tWSs?authuser=0&hl=en&rclk=1", "address": "\ue0c8Tahseen Nakhuh Commercial Complex, Shatt Al-Arab St. 13, Amman, Jordan", "website": "", "rating": "", "phone": ""}
{"name": "Intense Barbershop - Fourth Circle", "lat": 31.9567608, "lon": 35.8918382, "url": "https://www.google.com/maps/place/Intense+Barbershop+-+Fourth+Circle/data=!4m7!3m6!1s0x151ca1aed75b84bf:0xdf92020494c860d4!8m2!3d31.9567608!4d35.8918382!16s%2Fg%2F11xvshdtps!19sChIJv4Rb166hHBUR1GDIlAQCkt8?authuser=0&hl=en&rclk=1", "address": "\ue0c8Zahran St 119, Amman 11118, Jordan", "website": "/url?q=https://www.intensegrooming.com/&opi=79508299&sa=U&ved=0ahUKEwj1h67ysvWTAxXiUaQEHYlzKJkQ61gIFigR&usg=AOvVaw3B-5SobXJGEpIIiHV-ju9S", "rating": "", "phone": ""}
{"name": "THE HAIRBIN BARBERSHOP", "lat": 31.9802437, "lon": 35.8773243, "url": "https://www.google.com/maps/place/THE+HAIRBIN+BARBERSHOP/data=!4m7!3m6!1s0x151ca1005c482f1f:0x9da62db6980737e3!8m2!3d31.9802437!4d35.8773243!16s%2Fg%2F11x7k51m4z!19sChIJHy9IXAChHBUR4zcHmLYtpp0?authuser=0&hl=en&rclk=1", "address": "\ue0c8Omar Ben Abdul Aziz St. 74, Amman, Jordan", "website": "", "rating": "", "phone": ""}
{"name": "My Barber Joe", "lat": 31.8862166, "lon": 36.0095924, "url": "https://www.google.com/maps/place/My+Barber+Joe/data=!4m7!3m6!1s0x151b5d7f573f964b:0x6291ffa3bc48c476!8m2!3d31.8862166!4d36.0095924!16s%2Fg%2F11gjt6b9bm!19sChIJS5Y_V39dGxURdsRIvKP_kWI?authuser=0&hl=en&rclk=1", "address": "\ue0c8Rabihah bin al harith street ,Abdaliah, Amman, Jordan", "website": "/url?q=https://instagram.com/my_barber23%3Figshid%3DOGQ5ZDc2ODk2ZA%3D%3D&opi=79508299&sa=U&ved=0ahUKEwjw28jzsvWTAxWFnycCHaS2DeEQ61gIFSgQ&usg=AOvVaw0IpJtA75EOAycM8rGkBqJV", "rating": "", "phone": ""}
{"name": "Bro\u2019s Barber Shop For Men", "lat": 31.927648, "lon": 35.9036661, "url": "https://www.google.com/maps/place/Bro%E2%80%99s+Barber+Shop+For+Men/data=!4m7!3m6!1s0x151ca1e650dbb30d:0xecefcf32ddd1a4d5!8m2!3d31.927648!4d35.9036661!16s%2Fg%2F11wmvv07nm!19sChIJDbPbUOahHBUR1aTR3TLP7-w?authuser=0&hl=en&rclk=1", "address": "\ue0c8Al-Nabighah Al-Ga\u2019di St, Amman 11171, Jordan", "website": "/url?q=https://shorturl.at/hpxjv&opi=79508299&sa=U&ved=0ahUKEwingf7zsvWTAxW2UqQEHebcJEEQ61gIFSgQ&usg=AOvVaw15Zay9hHKQMEnMGWdgLx2k", "rating": "", "phone": ""}
{"name": "Steve Hairbond Barber Shop", "lat": 31.9749635, "lon": 35.8515375, "url": "https://www.google.com/maps/place/Steve+Hairbond+Barber+Shop/data=!4m7!3m6!1s0x151ca18636b75cc3:0x6f4d3207e7609553!8m2!3d31.9749635!4d35.8515375!16s%2Fg%2F11g4jblxdj!19sChIJw1y3NoahHBURU5Vg5wcyTW8?authuser=0&hl=en&rclk=1", "address": "\ue0c8XVF2+XJM, Mamdouh Al-Sarayrah St, Amman, Jordan", "website": "/url?q=https://m.facebook.com/SteveHairbond/&opi=79508299&sa=U&ved=0ahUKEwiNla_0svWTAxVhUqQEHY80LJgQ61gIFygS&usg=AOvVaw2seOXnFexzN9BL97qYCx5e", "rating": "", "phone": ""}
{"name": "Creative Cut", "lat": 31.9925789, "lon": 35.8484361, "url": "https://www.google.com/maps/place/Creative+Cut/data=!4m7!3m6!1s0x151ca14d7c37d143:0xa6c7db3aab181ade!8m2!3d31.9925789!4d35.8484361!16s%2Fg%2F11jnsn7p8h!19sChIJQ9E3fE2hHBUR3hoYqzrbx6Y?authuser=0&hl=en&rclk=1", "address": "\ue0c8Amir Ben Malek St. 71, Amman, Jordan", "website": "", "rating": "", "phone": ""}
{"name": "JAMAL SALOON", "lat": 31.9664268, "lon": 35.8937911, "url": "https://www.google.com/maps/place/JAMAL+SALOON/data=!4m7!3m6!1s0x151ca06826d69e49:0x92ed1ad6289d417a!8m2!3d31.9664268!4d35.8937911!16s%2Fg%2F11hcyk8l21!19sChIJSZ7WJmigHBURekGdKNYa7ZI?authuser=0&hl=en&rclk=1", "address": "\ue0c8Pr. Shaker St., Amman, Jordan", "website": "", "rating": "", "phone": ""}
{"name": "Intense Barbershop - VIA (Abdoun)", "lat": 31.9401875, "lon": 35.8896875, "url": "https://www.google.com/maps/place/Intense+Barbershop+-+VIA+%28Abdoun%29/data=!4m7!3m6!1s0x151ca1ec61f63589:0x8b4c7b5db9b228a1!8m2!3d31.9401875!4d35.8896875!16s%2Fg%2F11vb4cv_3z!19sChIJiTX2YeyhHBURoSiyuV17TIs?authuser=0&hl=en&rclk=1", "address": "\ue0c8WVRQ+3VP, Tawfiq Tab'a St, Amman 11814, Jordan", "website": "/url?q=https://www.intensegrooming.com/&opi=79508299&sa=U&ved=0ahUKEwjctr_2svWTAxU1KvsDHakABZQQ61gIFygS&usg=AOvVaw0Gyr-6BKqlqbebC4S_7H-P", "rating": "", "phone": ""}
{"name": "The Shave Shack", "lat": 31.9680609, "lon": 35.8657362, "url": "https://www.google.com/maps/place/The+Shave+Shack/data=!4m7!3m6!1s0x151ca169a72d4f99:0x1da324674c1e100f!8m2!3d31.9680609!4d35.8657362!16s%2Fg%2F11l2x1l9ny!19sChIJmU8tp2mhHBURDxAeTGckox0?authuser=0&hl=en&rclk=1", "address": "\ue0c8Jezan St., Amman, Jordan", "website": "", "rating": "", "phone": ""}
{"name": "barbershop", "lat": 31.9633074, "lon": 35.9035945, "url": "https://www.google.com/maps/place/barbershop/data=!4m7!3m6!1s0x151ca1ffd3e75277:0xed9d34c79b361bb!8m2!3d31.9633074!4d35.9035945!16s%2Fg%2F11fjq7z3v4!19sChIJd1Ln0_-hHBURu2GzeUzT2Q4?authuser=0&hl=en&rclk=1", "address": "\ue0c8Suliman Al Nabulsi St, Amman, Jordan", "website": "", "rating": "", "phone": ""}
{"name": "The Barber shop 7th Cir.", "lat": 31.9656484, "lon": 35.8593324, "url": "https://www.google.com/maps/place/The+Barber+shop+7th+Cir./data=!4m7!3m6!1s0x151ca107c7aa05d5:0xe138800b0d9226f1!8m2!3d31.9656484!4d35.8593324!16s%2Fg%2F11y1spfkv1!19sChIJ1QWqxwehHBUR8SaSDQuAOOE?authuser=0&hl=en&rclk=1", "address": "\ue0c8XV85+6PV, Amman, Jordan", "website": "", "rating": "", "phone": ""}
{"name": "Alkhateeb Salon", "lat": 31.9883285, "lon": 35.8748487, "url": "https://www.google.com/maps/place/Alkhateeb+Salon/data=!4m7!3m6!1s0x151ca1bf33689c13:0x68b22ff763b166e!8m2!3d31.9883285!4d35.8748487!16s%2Fg%2F11rxmn_n9t!19sChIJE5xoM7-hHBURbhY7dv8iiwY?authuser=0&hl=en&rclk=1", "address": "\ue0c8Wasfi At-Tall St., Amman 00962, Jordan", "website": "/url?q=https://alkhateebsalon.com/&opi=79508299&sa=U&ved=0ahUKEwi7o9r4svWTAxWbVqQEHQwnIGwQ61gIFigR&usg=AOvVaw3rLbpr0qhiNn7ud3XyzzXN", "rating": "", "phone": ""}
